{"version": 0.6, "generator": "Overpass API 0.7.59 e21c39fe", "osm3s": {"timestamp_osm_base": "2023-01-30T21:17:54Z", "copyright": "The data included in this document is from www.openstreetmap.org. The data is made available under ODbL."}, "elements": [{"type": "node", "id": 4416325049, "lat": -22.915198, "lon": -47.0692183}, {"type": "node", "id": 4416325050, "lat": -22.9150672, "lon": -47.0689789}, {"type": "node", "id": 4416325051, "lat": -22.9154621, "lon": -47.0686948}, {"type": "node", "id": 4416325052, "lat": -22.9155905, "lon": -47.0689447}, {"type": "node", "id": 8870317172, "lat": -22.9159481, "lon": -47.0692046}, {"type": "node", "id": 8870317173, "lat": -22.9159844, "lon": -47.0691803}, {"type": "node", "id": 8870317174, "lat": -22.9162019, "lon": -47.0695636}, {"type": "node", "id": 8870317175, "lat": -22.9161656, "lon": -47.0695879}, {"type": "node", "id": 8873515344, "lat": -22.9135086, "lon": -47.073506}, {"type": "node", "id": 8873515345, "lat": -22.9135467, "lon": -47.0733595}, {"type": "node", "id": 8873515346, "lat": -22.9137171, "lon": -47.0734117}, {"type": "node", "id": 8873515347, "lat": -22.9136791, "lon": -47.0735582}, {"type": "way", "id": 444138504, "nodes": [4416325049, 4416325050, 4416325051, 4416325052, 4416325049], "tags": {"addr:city": "Campinas", "addr:housenumber": "450", "addr:postcode": "13036-225", "addr:street": "Avenida das Amoreiras", "addr:suburb": "Vila Industrial", "amenity": "theatre", "building": "yes", "name": "Teatro do SESI", "operator": "SESI"}}, {"type": "way", "id": 958674461, "nodes": [8870317175, 8870317174, 8870317173, 8870317172, 8870317175], "tags": {"amenity": "bus_station", "building": "roof", "name": "Esta\u00e7\u00e3o Mario Gatti", "network": "EMDEC", "public_transport": "station", "shelter": "yes"}}, {"type": "way", "id": 958976334, "nodes": [8873515344, 8873515345, 8873515346, 8873515347, 8873515344], "tags": {"building": "yes"}}]}