{"version": 0.6, "generator": "Overpass API 0.7.59 e21c39fe", "osm3s": {"timestamp_osm_base": "2023-01-30T18:53:38Z", "copyright": "The data included in this document is from www.openstreetmap.org. The data is made available under ODbL."}, "elements": [{"type": "node", "id": 2000795044, "lat": -23.9644378, "lon": -46.3858341, "tags": {"amenity": "police", "name": "Primeiro DP de S\u00e3o Vicente"}}, {"type": "node", "id": 2002651876, "lat": -23.9618026, "lon": -46.3894518, "tags": {"amenity": "place_of_worship", "denomination": "baptist", "name": "Igreja Batista Peniel", "religion": "christian"}}, {"type": "node", "id": 3586447790, "lat": -23.963789, "lon": -46.39086}, {"type": "node", "id": 3586447791, "lat": -23.9637996, "lon": -46.3902085}, {"type": "node", "id": 3586447792, "lat": -23.9643267, "lon": -46.3901945}, {"type": "node", "id": 3586449093, "lat": -23.9642797, "lon": -46.3908553}, {"type": "node", "id": 3586449094, "lat": -23.9644398, "lon": -46.390853}, {"type": "node", "id": 3586449095, "lat": -23.9644035, "lon": -46.3914624}, {"type": "node", "id": 3586449096, "lat": -23.9641368, "lon": -46.3914671}, {"type": "node", "id": 3586449097, "lat": -23.9641965, "lon": -46.390888}, {"type": "node", "id": 3987032547, "lat": -23.9632266, "lon": -46.3859419, "tags": {"amenity": "fuel", "brand": "Shell", "brand:wikidata": "Q154950", "brand:wikipedia": "en:Royal Dutch Shell", "name": "Shell"}}, {"type": "way", "id": 352866100, "nodes": [3586447790, 3586447791, 3586447792, 3586449093, 3586449094, 3586449095, 3586449096, 3586449097, 3586447790], "tags": {"addr:city": "S\u00e3o vicente", "addr:housenumber": "798", "addr:street": "Avenida Capit\u00e3o Mor Aguiar", "addr:suburb": "Parque Bitaru", "amenity": "university", "name": "Unibr - Faculdade de S\u00e3o vicente"}}]}