{"version": 0.6, "generator": "Overpass API 0.7.59 e21c39fe", "osm3s": {"timestamp_osm_base": "2023-01-30T20:07:43Z", "copyright": "The data included in this document is from www.openstreetmap.org. The data is made available under ODbL."}, "elements": [{"type": "node", "id": 4399329242, "lat": -23.5278099, "lon": -46.9017126}, {"type": "node", "id": 4399329243, "lat": -23.5284739, "lon": -46.9012808}, {"type": "node", "id": 4399329244, "lat": -23.5284788, "lon": -46.901042}, {"type": "node", "id": 4399329245, "lat": -23.5281591, "lon": -46.9007175}, {"type": "node", "id": 4399329246, "lat": -23.5274976, "lon": -46.9011547}, {"type": "node", "id": 5648063701, "lat": -23.5291469, "lon": -46.9014556}, {"type": "node", "id": 5648063702, "lat": -23.5292423, "lon": -46.9014383}, {"type": "node", "id": 5648063703, "lat": -23.5292201, "lon": -46.9012023}, {"type": "node", "id": 5648063704, "lat": -23.5292041, "lon": -46.9010344}, {"type": "node", "id": 5648063705, "lat": -23.5291062, "lon": -46.9010407}, {"type": "node", "id": 5648063706, "lat": -23.5292017, "lon": -46.901447}, {"type": "node", "id": 9106119232, "lat": -23.5304291, "lon": -46.9001905}, {"type": "node", "id": 9106119233, "lat": -23.5305285, "lon": -46.9007799}, {"type": "node", "id": 9106119234, "lat": -23.5312397, "lon": -46.9005985}, {"type": "node", "id": 9106119235, "lat": -23.5312427, "lon": -46.9004998}, {"type": "node", "id": 9106119236, "lat": -23.5312308, "lon": -46.8998472}, {"type": "node", "id": 9106119238, "lat": -23.5314476, "lon": -46.900167}, {"type": "node", "id": 9106119239, "lat": -23.5314134, "lon": -46.8999666}, {"type": "node", "id": 9106119240, "lat": -23.530824, "lon": -46.9000431}, {"type": "node", "id": 9106119241, "lat": -23.530893, "lon": -46.9007135}, {"type": "node", "id": 9106119242, "lat": -23.5310664, "lon": -46.9006674}, {"type": "node", "id": 9112233359, "lat": -23.5287774, "lon": -46.8982433}, {"type": "node", "id": 9112233360, "lat": -23.5282729, "lon": -46.897619}, {"type": "node", "id": 9112233361, "lat": -23.5285202, "lon": -46.8973858}, {"type": "node", "id": 9112233362, "lat": -23.5288283, "lon": -46.8969929}, {"type": "node", "id": 9112233363, "lat": -23.5294524, "lon": -46.897705}, {"type": "way", "id": 442242847, "nodes": [4399329242, 4399329243, 4399329244, 4399329245, 4399329246, 4399329242], "tags": {"addr:city": "Jandira", "addr:housenumber": "186", "addr:postcode": "06600-020", "addr:street": "Avenida Jo\u00e3o Balhesteiro", "addr:suburb": "Centro", "amenity": "school", "contact:phone": "+55 11 4789 0071", "email": "eE010397a@educacao.sp.gov.br", "name": "Escola Estadual Professor Vicente Themudo Lessa", "operator": "Secretaria da Educa\u00e7\u00e3o do Estado de S\u00e3o Paulo", "operator:type": "government", "phone": "+55 11 4707 2867", "ref": "INEP-35010397"}}, {"type": "way", "id": 591639303, "nodes": [5648063701, 5648063706, 5648063702, 5648063703, 5648063704, 5648063705, 5648063701], "tags": {"addr:city": "Jandira", "addr:housenumber": "02", "addr:postcode": "06600-042", "addr:street": "Rua Jos\u00e9 Manoel da Concei\u00e7\u00e3o", "addr:suburb": "Centro", "amenity": "place_of_worship", "building": "temple", "denomination": "presbyterian", "name": "Igreja Presbiteriana JMC", "religion": "christian", "service_times": "Su 09:00; 19:00; We 19:30; Th 15:00", "website": "http://ipjmc.org.br/"}}, {"type": "way", "id": 984959165, "nodes": [9106119232, 9106119233, 9106119241, 9106119242, 9106119234, 9106119235, 9106119238, 9106119239, 9106119236, 9106119240, 9106119232], "tags": {"addr:housenumber": "243", "addr:postcode": "06600-070", "addr:street": "Rua Jo\u00e3o Barbosa", "addr:suburb": "Centro", "amenity": "school", "contact:phone": "+55 11 4707 3916", "email": "e923333a@educacao.sp.gov.br", "name": "Escola Estadual Professora Josepha Pinto Chiavelli", "operator": "Secretaria da Educa\u00e7\u00e3o do Estado de S\u00e3o Paulo", "operator:type": "government", "phone": "+55 11 4789 7485", "ref": "INEP-35923333", "religion": "none", "source": "CADMEC 2017;INEP"}}, {"type": "way", "id": 985671292, "nodes": [9112233359, 9112233360, 9112233361, 9112233362, 9112233363, 9112233359], "tags": {"addr:housenumber": "905", "addr:postcode": "06600-025", "addr:street": "Rua Elton Silva", "addr:suburb": "Cengtro", "amenity": "college", "email": "senaijandira@sp.senai.br", "name": "Escola Senai Professor Vicente Amato", "operator": "Servi\u00e7o Nacional da Ind\u00fastria", "operator:type": "public", "phone": "+55 11 4772 4700", "ref": "INEP-35147874", "source": "CADMEC 2017;INEP", "website": "https://jandira.sp.senai.br/"}}]}