{"version": 0.6, "generator": "Overpass API 0.7.59 e21c39fe", "osm3s": {"timestamp_osm_base": "2023-01-30T21:05:38Z", "copyright": "The data included in this document is from www.openstreetmap.org. The data is made available under ODbL."}, "elements": [{"type": "node", "id": 4987465090, "lat": -23.5388031, "lon": -46.3566945}, {"type": "node", "id": 4987465091, "lat": -23.5388322, "lon": -46.3566895}, {"type": "node", "id": 4987465092, "lat": -23.5390604, "lon": -46.3566402}, {"type": "node", "id": 4987465093, "lat": -23.538994, "lon": -46.3564732}, {"type": "node", "id": 4987465094, "lat": -23.5387518, "lon": -46.3565678}, {"type": "node", "id": 6388404639, "lat": -23.5388458, "lon": -46.3567317}, {"type": "way", "id": 509520717, "nodes": [4987465090, 4987465091, 6388404639, 4987465092, 4987465093, 4987465094, 4987465090], "tags": {"addr:city": "Ferraz de Vasconcelos", "addr:housenumber": "532", "addr:postcode": "08502-300", "addr:street": "Rua Jorge Tibiri\u00e7\u00e1", "addr:suburb": "Vila Corr\u00eaa", "amenity": "place_of_worship", "building": "church", "denomination": "roman_catholic", "email": "paroquiansfferraz@terra.com.br", "name": "Par\u00f3quia Nossa Senhora de F\u00e1tima", "phone": "+55 11 4675 4499", "religion": "christian", "service_times": "Su 08:00,19:30; Sa 20:00; Fr 19:30; Tu 19:30", "start_date": "06 de maio de 2011", "website": "http://www.diocesedemogi.org.br/paroquias_pagina.php?id=28"}}]}