{"version": 0.6, "generator": "Overpass API 0.7.59 e21c39fe", "osm3s": {"timestamp_osm_base": "2023-01-30T19:02:53Z", "copyright": "The data included in this document is from www.openstreetmap.org. The data is made available under ODbL."}, "elements": [{"type": "node", "id": 1936781056, "lat": -23.3211233, "lon": -46.5826948}, {"type": "node", "id": 1936781057, "lat": -23.3211482, "lon": -46.5829005}, {"type": "node", "id": 1936781058, "lat": -23.3212855, "lon": -46.5826657}, {"type": "node", "id": 1936781059, "lat": -23.3213157, "lon": -46.5828792}, {"type": "node", "id": 8286573509, "lat": -23.3197003, "lon": -46.583532}, {"type": "node", "id": 8286573510, "lat": -23.319587, "lon": -46.5829955}, {"type": "node", "id": 8286573511, "lat": -23.3199638, "lon": -46.5828936}, {"type": "node", "id": 8286573512, "lat": -23.3200427, "lon": -46.5834595}, {"type": "node", "id": 8286734793, "lat": -23.3212028, "lon": -46.5826817}, {"type": "node", "id": 8286734799, "lat": -23.3209847, "lon": -46.5828012, "tags": {"addr:street": "Avenida S\u00e3o Paulo", "addr:suburb": "Centro", "amenity": "car_wash"}}, {"type": "way", "id": 183310349, "nodes": [1936781057, 1936781059, 1936781058, 8286734793, 1936781056, 1936781057], "tags": {"addr:postcode": "07600-000", "addr:street": "Avenida S\u00e3o Paulo", "addr:suburb": "Centro", "amenity": "fuel", "building": "roof", "fuel:diesel": "yes", "fuel:diesel_S10": "yes", "fuel:diesel_S500": "yes", "fuel:etanol_comum": "yes", "name": "Boxter", "self_service": "no"}}, {"type": "way", "id": 891543320, "nodes": [8286573509, 8286573510, 8286573511, 8286573512, 8286573509], "tags": {"addr:housenumber": "95", "addr:postcode": "07600-072", "addr:street": "Rua Olavo Bilac", "addr:suburb": "Centro", "amenity": "school", "email": "cemsilviapiunti@mairipora.sp.gov.br", "name": "Creche Escola Municipal Professora Silvia Maria Piunti Garcia", "phone": "+55 11 4419 1753", "ref": "INEP-35445915"}}]}